{
    "arrets": {
        "32": {
            "latitude": 12.3789,
            "zone": "Zone 3",
            "nom": "Nongremassom École",
            "longitude": -1.4867,
            "quartier": "Nongremassom"
        },
        "29": {
            "latitude": 12.3456,
            "zone": "Zone 3",
            "nom": "Yamtenga Mosquée",
            "longitude": -1.5012,
            "quartier": "Yamtenga"
        },
        "1": {
            "latitude": 12.3686,
            "zone": "Zone 1",
            "nom": "Gare Routière",
            "longitude": -1.5275,
            "quartier": "Centre-Ville"
        },
        "2": {
            "latitude": 12.3658,
            "zone": "Zone 1",
            "nom": "Place de la Nation",
            "longitude": -1.5342,
            "quartier": "Centre-Ville"
        },
        "41": {
            "latitude": 12.4234,
            "zone": "Zone 5",
            "nom": "Ouaga 2000 Carrefour",
            "longitude": -1.4567,
            "quartier": "Ouaga 2000"
        },
        "27": {
            "latitude": 12.3234,
            "zone": "Zone 4",
            "nom": "Nioko II Marché",
            "longitude": -1.5567,
            "quartier": "Nioko II"
        },
        "42": {
            "latitude": 12.3456,
            "zone": "Zone 4",
            "nom": "Zone Industrielle",
            "longitude": -1.5567,
            "quartier": "Zone Industrielle"
        },
        "33": {
            "latitude": 12.3645,
            "zone": "Zone 1",
            "nom": "Secteur 30 Marché",
            "longitude": -1.5289,
            "quartier": "Secteur 30"
        },
        "28": {
            "latitude": 12.4123,
            "zone": "Zone 5",
            "nom": "Rimkièta Dispensaire",
            "longitude": -1.4787,
            "quartier": "Rimkièta"
        },
        "50": {
            "latitude": 12.3567,
            "zone": "Zone 2",
            "nom": "CNSS Carrefour",
            "longitude": -1.5123,
            "quartier": "Zone du Bois"
        },
        "26": {
            "latitude": 12.3789,
            "zone": "Zone 3",
            "nom": "Wayalghin École",
            "longitude": -1.4998,
            "quartier": "Wayalghin"
        },
        "10": {
            "latitude": 12.3789,
            "zone": "Zone 4",
            "nom": "Marché Sankaryaré",
            "longitude": -1.5445,
            "quartier": "Sankaryaré"
        },
        "24": {
            "latitude": 12.3234,
            "zone": "Zone 4",
            "nom": "Bendogo Village",
            "longitude": -1.5678,
            "quartier": "Bendogo"
        },
        "25": {
            "latitude": 12.3567,
            "zone": "Zone 2",
            "nom": "Somgandé Carrefour",
            "longitude": -1.5123,
            "quartier": "Somgandé"
        },
        "23": {
            "latitude": 12.4678,
            "zone": "Zone 5",
            "nom": "Cissin Terminal",
            "longitude": -1.4534,
            "quartier": "Cissin"
        },
        "49": {
            "latitude": 12.3789,
            "zone": "Zone 3",
            "nom": "CHU-YO",
            "longitude": -1.4867,
            "quartier": "Bogodogo"
        },
        "5": {
            "latitude": 12.368,
            "zone": "Zone 1",
            "nom": "Place de la Révolution",
            "longitude": -1.531,
            "quartier": "Centre-Ville"
        },
        "31": {
            "latitude": 12.3567,
            "zone": "Zone 2",
            "nom": "Kilwin Carrefour",
            "longitude": -1.5234,
            "quartier": "Kilwin"
        },
        "43": {
            "latitude": 12.3567,
            "zone": "Zone 3",
            "nom": "Cité AN II",
            "longitude": -1.5012,
            "quartier": "Cité AN II"
        },
        "39": {
            "latitude": 12.3678,
            "zone": "Zone 1",
            "nom": "Secteur 4 Marché",
            "longitude": -1.5345,
            "quartier": "Secteur 4"
        },
        "34": {
            "latitude": 12.3567,
            "zone": "Zone 2",
            "nom": "Secteur 15 Dispensaire",
            "longitude": -1.5156,
            "quartier": "Secteur 15"
        },
        "44": {
            "latitude": 12.3589,
            "zone": "Zone 3",
            "nom": "Cité AN III",
            "longitude": -1.4998,
            "quartier": "Cité AN III"
        },
        "17": {
            "latitude": 12.3689,
            "zone": "Zone 2",
            "nom": "Zogona Mosquée",
            "longitude": -1.5456,
            "quartier": "Zogona"
        },
        "37": {
            "latitude": 12.3689,
            "zone": "Zone 2",
            "nom": "Secteur 20 Mosquée",
            "longitude": -1.5123,
            "quartier": "Secteur 20"
        },
        "47": {
            "latitude": 12.3567,
            "zone": "Zone 2",
            "nom": "Cité SONATUR",
            "longitude": -1.5234,
            "quartier": "Cité SONATUR"
        },
        "9": {
            "latitude": 12.3456,
            "zone": "Zone 3",
            "nom": "Rond-Point du 8 Mars",
            "longitude": -1.5234,
            "quartier": "Zanguina"
        },
        "12": {
            "latitude": 12.4125,
            "zone": "Zone 5",
            "nom": "Kossodo Terminal",
            "longitude": -1.4986,
            "quartier": "Kossodo"
        },
        "20": {
            "latitude": 12.3456,
            "zone": "Zone 3",
            "nom": "Sig-Noghin Marché",
            "longitude": -1.4987,
            "quartier": "Sig-Noghin"
        },
        "6": {
            "latitude": 12.3598,
            "zone": "Zone 2",
            "nom": "Patte d'Oie",
            "longitude": -1.5185,
            "quartier": "Patte d'Oie"
        },
        "14": {
            "latitude": 12.3345,
            "zone": "Zone 4",
            "nom": "Pissy Marché",
            "longitude": -1.5567,
            "quartier": "Pissy"
        },
        "7": {
            "latitude": 12.3542,
            "zone": "Zone 2",
            "nom": "Rond-Point des Nations-Unies",
            "longitude": -1.5156,
            "quartier": "Zone du Bois"
        },
        "8": {
            "latitude": 12.3725,
            "zone": "Zone 3",
            "nom": "Avenue Yennenga",
            "longitude": -1.5089,
            "quartier": "Koulouba"
        },
        "19": {
            "latitude": 12.3798,
            "zone": "Zone 2",
            "nom": "Dassasgo Dispensaire",
            "longitude": -1.5234,
            "quartier": "Dassasgo"
        },
        "4": {
            "latitude": 12.3705,
            "zone": "Zone 1",
            "nom": "Marché Central",
            "longitude": -1.5267,
            "quartier": "Centre-Ville"
        },
        "22": {
            "latitude": 12.3567,
            "zone": "Zone 2",
            "nom": "Wemtenga Carrefour",
            "longitude": -1.5234,
            "quartier": "Wemtenga"
        },
        "11": {
            "latitude": 12.3998,
            "zone": "Zone 5",
            "nom": "Université de Ouaga I",
            "longitude": -1.5156,
            "quartier": "Université"
        },
        "35": {
            "latitude": 12.3712,
            "zone": "Zone 1",
            "nom": "Secteur 7 École",
            "longitude": -1.5234,
            "quartier": "Secteur 7"
        },
        "13": {
            "latitude": 12.3856,
            "zone": "Zone 4",
            "nom": "Gounghin Centre",
            "longitude": -1.5378,
            "quartier": "Gounghin"
        },
        "15": {
            "latitude": 12.4234,
            "zone": "Zone 5",
            "nom": "Samandin Carrefour",
            "longitude": -1.4789,
            "quartier": "Samandin"
        },
        "16": {
            "latitude": 12.3567,
            "zone": "Zone 3",
            "nom": "Tanghin École",
            "longitude": -1.4978,
            "quartier": "Tanghin"
        },
        "40": {
            "latitude": 12.3234,
            "zone": "Zone 4",
            "nom": "Secteur 28 Centre",
            "longitude": -1.5678,
            "quartier": "Secteur 28"
        },
        "46": {
            "latitude": 12.3234,
            "zone": "Zone 4",
            "nom": "Cité Azimo",
            "longitude": -1.5445,
            "quartier": "Cité Azimo"
        },
        "21": {
            "latitude": 12.4567,
            "zone": "Zone 5",
            "nom": "Tampouy Centre",
            "longitude": -1.4656,
            "quartier": "Tampouy"
        },
        "38": {
            "latitude": 12.3734,
            "zone": "Zone 1",
            "nom": "Secteur 12 Lycée",
            "longitude": -1.5267,
            "quartier": "Secteur 12"
        },
        "45": {
            "latitude": 12.3612,
            "zone": "Zone 2",
            "nom": "Cité AN V",
            "longitude": -1.5156,
            "quartier": "Cité AN V"
        },
        "36": {
            "latitude": 12.3456,
            "zone": "Zone 3",
            "nom": "Secteur 25 Carrefour",
            "longitude": -1.4987,
            "quartier": "Secteur 25"
        },
        "48": {
            "latitude": 12.3123,
            "zone": "Zone 4",
            "nom": "Barrage de Boulmiougou",
            "longitude": -1.5789,
            "quartier": "Boulmiougou"
        },
        "18": {
            "latitude": 12.3234,
            "zone": "Zone 4",
            "nom": "Boulmiougou Lycée",
            "longitude": -1.5689,
            "quartier": "Boulmiougou"
        },
        "30": {
            "latitude": 12.3678,
            "zone": "Zone 4",
            "nom": "Balkuy Centre",
            "longitude": -1.5445,
            "quartier": "Balkuy"
        },
        "3": {
            "latitude": 12.3622,
            "zone": "Zone 1",
            "nom": "Avenue Kwame Nkrumah",
            "longitude": -1.5298,
            "quartier": "Centre-Ville"
        }
    },
    "lignes": {
        "4": {
            "distance_km": 12,
            "statut": "Actif",
            "destination": "Gounghin",
            "nom": "Ligne 4 - Gounghin",
            "origine": "Marché Central",
            "tarif_fcfa": 125
        },
        "1": {
            "distance_km": 18,
            "statut": "Actif",
            "destination": "Kossodo",
            "nom": "Ligne 1 - Centre-Ville",
            "origine": "Gare Routière",
            "tarif_fcfa": 150
        },
        "12": {
            "distance_km": 21,
            "statut": "Actif",
            "destination": "Tampouy",
            "nom": "Ligne 12 - Tampouy",
            "origine": "Rond-Point du 8 Mars",
            "tarif_fcfa": 175
        },
        "2": {
            "distance_km": 22,
            "statut": "Actif",
            "destination": "Université de Ouaga I",
            "nom": "Ligne 2 - Université",
            "origine": "Patte d'Oie",
            "tarif_fcfa": 175
        },
        "6": {
            "distance_km": 25,
            "statut": "Actif",
            "destination": "Samandin",
            "nom": "Ligne 6 - Samandin",
            "origine": "Gare SOTRACO",
            "tarif_fcfa": 200
        },
        "11": {
            "distance_km": 17,
            "statut": "Actif",
            "destination": "Sig-Noghin",
            "nom": "Ligne 11 - Sig-Noghin",
            "origine": "Centre-Ville",
            "tarif_fcfa": 150
        },
        "13": {
            "distance_km": 16,
            "statut": "Actif",
            "destination": "Wemtenga",
            "nom": "Ligne 13 - Wemtenga",
            "origine": "Avenue Yennenga",
            "tarif_fcfa": 150
        },
        "5": {
            "distance_km": 20,
            "statut": "Actif",
            "destination": "Pissy",
            "nom": "Ligne 5 - Pissy",
            "origine": "Rond-Point des Nations-Unies",
            "tarif_fcfa": 150
        },
        "15": {
            "distance_km": 18,
            "statut": "Actif",
            "destination": "Bendogo",
            "nom": "Ligne 15 - Bendogo",
            "origine": "Marché Sankaryaré",
            "tarif_fcfa": 150
        },
        "14": {
            "distance_km": 23,
            "statut": "Actif",
            "destination": "Cissin",
            "nom": "Ligne 14 - Cissin",
            "origine": "Place de la Révolution",
            "tarif_fcfa": 200
        },
        "7": {
            "distance_km": 16,
            "statut": "Actif",
            "destination": "Tanghin",
            "nom": "Ligne 7 - Tanghin",
            "origine": "Patte d'Oie",
            "tarif_fcfa": 150
        },
        "8": {
            "distance_km": 14,
            "statut": "Actif",
            "destination": "Zogona",
            "nom": "Ligne 8 - Zogona",
            "origine": "Place de la Nation",
            "tarif_fcfa": 125
        },
        "10": {
            "distance_km": 13,
            "statut": "Actif",
            "destination": "Dassasgo",
            "nom": "Ligne 10 - Dassasgo",
            "origine": "Gare Routière",
            "tarif_fcfa": 125
        },
        "9": {
            "distance_km": 19,
            "statut": "Actif",
            "destination": "Boulmiougou",
            "nom": "Ligne 9 - Boulmiougou",
            "origine": "Avenue Kwame Nkrumah",
            "tarif_fcfa": 175
        },
        "3": {
            "distance_km": 15,
            "statut": "Actif",
            "destination": "Aéroport Thomas Sankara",
            "nom": "Ligne 3 - Aéroport",
            "origine": "Centre-Ville",
            "tarif_fcfa": 200
        }
    },
    "nb_predictions": 0,
    "nb_frequentation": 2090
}